{
  "collected_at": "2026-04-19T15:04:12.263263+00:00",
  "source": "tomtom_traffic_flow",
  "success_count": 8,
  "fail_count": 0,
  "readings": [
    {
      "timestamp": "2026-04-19 15:04:01.414781+00:00",
      "location_name": "sarjapur_road_junction",
      "lat": 12.9165,
      "lon": 77.675,
      "current_speed": 29,
      "free_flow_speed": 36,
      "confidence": 1,
      "congestion_ratio": 0.806
    },
    {
      "timestamp": "2026-04-19 15:04:02.859771+00:00",
      "location_name": "dommasandra_circle",
      "lat": 12.8832,
      "lon": 77.7524,
      "current_speed": 29,
      "free_flow_speed": 37,
      "confidence": 0.977392,
      "congestion_ratio": 0.784
    },
    {
      "timestamp": "2026-04-19 15:04:04.352876+00:00",
      "location_name": "chembenahalli",
      "lat": 12.8793,
      "lon": 77.7616,
      "current_speed": 29,
      "free_flow_speed": 37,
      "confidence": 0.977392,
      "congestion_ratio": 0.784
    },
    {
      "timestamp": "2026-04-19 15:04:05.888744+00:00",
      "location_name": "varthur_gunjur_junction",
      "lat": 12.9265,
      "lon": 77.7377,
      "current_speed": 29,
      "free_flow_speed": 36,
      "confidence": 1,
      "congestion_ratio": 0.806
    },
    {
      "timestamp": "2026-04-19 15:04:07.335642+00:00",
      "location_name": "sarjapur_town_center",
      "lat": 12.86,
      "lon": 77.786,
      "current_speed": 29,
      "free_flow_speed": 37,
      "confidence": 0.977392,
      "congestion_ratio": 0.784
    },
    {
      "timestamp": "2026-04-19 15:04:08.764626+00:00",
      "location_name": "carmelaram_junction",
      "lat": 12.9125,
      "lon": 77.7056,
      "current_speed": 24,
      "free_flow_speed": 26,
      "confidence": 0.953366,
      "congestion_ratio": 0.923
    },
    {
      "timestamp": "2026-04-19 15:04:10.287536+00:00",
      "location_name": "harlur_road_junction",
      "lat": 12.908,
      "lon": 77.676,
      "current_speed": 19,
      "free_flow_speed": 26,
      "confidence": 1,
      "congestion_ratio": 0.731
    },
    {
      "timestamp": "2026-04-19 15:04:11.730540+00:00",
      "location_name": "iblur_wipro_junction",
      "lat": 12.9209,
      "lon": 77.6653,
      "current_speed": 13,
      "free_flow_speed": 25,
      "confidence": 1,
      "congestion_ratio": 0.52
    }
  ]
}