{
  "collected_at": "2026-04-19T14:43:04.551956+00:00",
  "source": "tomtom_traffic_flow",
  "success_count": 8,
  "fail_count": 0,
  "readings": [
    {
      "timestamp": "2026-04-19 14:42:54.215209+00:00",
      "location_name": "sarjapur_road_junction",
      "lat": 12.9165,
      "lon": 77.675,
      "current_speed": 29,
      "free_flow_speed": 37,
      "confidence": 1,
      "congestion_ratio": 0.784
    },
    {
      "timestamp": "2026-04-19 14:42:55.583223+00:00",
      "location_name": "dommasandra_circle",
      "lat": 12.8832,
      "lon": 77.7524,
      "current_speed": 30,
      "free_flow_speed": 37,
      "confidence": 0.987278,
      "congestion_ratio": 0.811
    },
    {
      "timestamp": "2026-04-19 14:42:56.958876+00:00",
      "location_name": "chembenahalli",
      "lat": 12.8793,
      "lon": 77.7616,
      "current_speed": 30,
      "free_flow_speed": 37,
      "confidence": 0.987278,
      "congestion_ratio": 0.811
    },
    {
      "timestamp": "2026-04-19 14:42:58.487824+00:00",
      "location_name": "varthur_gunjur_junction",
      "lat": 12.9265,
      "lon": 77.7377,
      "current_speed": 29,
      "free_flow_speed": 37,
      "confidence": 1,
      "congestion_ratio": 0.784
    },
    {
      "timestamp": "2026-04-19 14:42:59.860754+00:00",
      "location_name": "sarjapur_town_center",
      "lat": 12.86,
      "lon": 77.786,
      "current_speed": 30,
      "free_flow_speed": 37,
      "confidence": 0.987278,
      "congestion_ratio": 0.811
    },
    {
      "timestamp": "2026-04-19 14:43:01.214115+00:00",
      "location_name": "carmelaram_junction",
      "lat": 12.9125,
      "lon": 77.7056,
      "current_speed": 23,
      "free_flow_speed": 26,
      "confidence": 0.957857,
      "congestion_ratio": 0.885
    },
    {
      "timestamp": "2026-04-19 14:43:02.605838+00:00",
      "location_name": "harlur_road_junction",
      "lat": 12.908,
      "lon": 77.676,
      "current_speed": 20,
      "free_flow_speed": 27,
      "confidence": 1,
      "congestion_ratio": 0.741
    },
    {
      "timestamp": "2026-04-19 14:43:04.003726+00:00",
      "location_name": "iblur_wipro_junction",
      "lat": 12.9209,
      "lon": 77.6653,
      "current_speed": 25,
      "free_flow_speed": 25,
      "confidence": 1,
      "congestion_ratio": 1.0
    }
  ]
}