{
  "collected_at": "2026-04-19T06:22:35.210590+00:00",
  "source": "tomtom_traffic_flow",
  "success_count": 8,
  "fail_count": 0,
  "readings": [
    {
      "timestamp": "2026-04-19 06:22:25.863901+00:00",
      "location_name": "sarjapur_road_junction",
      "lat": 12.91,
      "lon": 77.687,
      "current_speed": 36,
      "free_flow_speed": 36,
      "confidence": 1,
      "congestion_ratio": 1.0
    },
    {
      "timestamp": "2026-04-19 06:22:27.050473+00:00",
      "location_name": "dommasandra_circle",
      "lat": 12.918,
      "lon": 77.752,
      "current_speed": 25,
      "free_flow_speed": 25,
      "confidence": 1,
      "congestion_ratio": 1.0
    },
    {
      "timestamp": "2026-04-19 06:22:28.243286+00:00",
      "location_name": "chembenahalli",
      "lat": 12.908,
      "lon": 77.736,
      "current_speed": 25,
      "free_flow_speed": 25,
      "confidence": 1,
      "congestion_ratio": 1.0
    },
    {
      "timestamp": "2026-04-19 06:22:29.649097+00:00",
      "location_name": "varthur_gunjur_junction",
      "lat": 12.937,
      "lon": 77.744,
      "current_speed": 36,
      "free_flow_speed": 36,
      "confidence": 1,
      "congestion_ratio": 1.0
    },
    {
      "timestamp": "2026-04-19 06:22:30.857240+00:00",
      "location_name": "sarjapur_town_center",
      "lat": 12.864,
      "lon": 77.787,
      "current_speed": 30,
      "free_flow_speed": 30,
      "confidence": 1,
      "congestion_ratio": 1.0
    },
    {
      "timestamp": "2026-04-19 06:22:32.142633+00:00",
      "location_name": "carmelaram_junction",
      "lat": 12.906,
      "lon": 77.706,
      "current_speed": 25,
      "free_flow_speed": 25,
      "confidence": 0.958379,
      "congestion_ratio": 1.0
    },
    {
      "timestamp": "2026-04-19 06:22:33.472962+00:00",
      "location_name": "harlur_road_junction",
      "lat": 12.916,
      "lon": 77.681,
      "current_speed": 36,
      "free_flow_speed": 36,
      "confidence": 1,
      "congestion_ratio": 1.0
    },
    {
      "timestamp": "2026-04-19 06:22:34.703620+00:00",
      "location_name": "iblur_wipro_junction",
      "lat": 12.925,
      "lon": 77.678,
      "current_speed": 26,
      "free_flow_speed": 26,
      "confidence": 1,
      "congestion_ratio": 1.0
    }
  ]
}