{
  "collected_at": "2026-04-18T17:43:31.299556+00:00",
  "source": "tomtom_traffic_flow",
  "success_count": 8,
  "fail_count": 0,
  "readings": [
    {
      "timestamp": "2026-04-18 17:43:22.174773+00:00",
      "location_name": "sarjapur_road_junction",
      "lat": 12.91,
      "lon": 77.687,
      "current_speed": 36,
      "free_flow_speed": 36,
      "confidence": 1,
      "congestion_ratio": 1.0
    },
    {
      "timestamp": "2026-04-18 17:43:23.351528+00:00",
      "location_name": "dommasandra_circle",
      "lat": 12.918,
      "lon": 77.752,
      "current_speed": 25,
      "free_flow_speed": 25,
      "confidence": 1,
      "congestion_ratio": 1.0
    },
    {
      "timestamp": "2026-04-18 17:43:24.527436+00:00",
      "location_name": "chembenahalli",
      "lat": 12.908,
      "lon": 77.736,
      "current_speed": 25,
      "free_flow_speed": 25,
      "confidence": 1,
      "congestion_ratio": 1.0
    },
    {
      "timestamp": "2026-04-18 17:43:25.876446+00:00",
      "location_name": "varthur_gunjur_junction",
      "lat": 12.937,
      "lon": 77.744,
      "current_speed": 36,
      "free_flow_speed": 36,
      "confidence": 1,
      "congestion_ratio": 1.0
    },
    {
      "timestamp": "2026-04-18 17:43:27.067236+00:00",
      "location_name": "sarjapur_town_center",
      "lat": 12.864,
      "lon": 77.787,
      "current_speed": 30,
      "free_flow_speed": 30,
      "confidence": 1,
      "congestion_ratio": 1.0
    },
    {
      "timestamp": "2026-04-18 17:43:28.259136+00:00",
      "location_name": "carmelaram_junction",
      "lat": 12.906,
      "lon": 77.706,
      "current_speed": 25,
      "free_flow_speed": 25,
      "confidence": 0.954731,
      "congestion_ratio": 1.0
    },
    {
      "timestamp": "2026-04-18 17:43:29.580685+00:00",
      "location_name": "harlur_road_junction",
      "lat": 12.916,
      "lon": 77.681,
      "current_speed": 36,
      "free_flow_speed": 36,
      "confidence": 1,
      "congestion_ratio": 1.0
    },
    {
      "timestamp": "2026-04-18 17:43:30.787877+00:00",
      "location_name": "iblur_wipro_junction",
      "lat": 12.925,
      "lon": 77.678,
      "current_speed": 26,
      "free_flow_speed": 26,
      "confidence": 1,
      "congestion_ratio": 1.0
    }
  ]
}