{
  "collected_at": "2026-04-19T08:36:06.941948+00:00",
  "source": "tomtom_traffic_flow",
  "success_count": 8,
  "fail_count": 0,
  "readings": [
    {
      "timestamp": "2026-04-19 08:35:57.813883+00:00",
      "location_name": "sarjapur_road_junction",
      "lat": 12.9165,
      "lon": 77.675,
      "current_speed": 33,
      "free_flow_speed": 35,
      "confidence": 1,
      "congestion_ratio": 1.061
    },
    {
      "timestamp": "2026-04-19 08:35:59.023267+00:00",
      "location_name": "dommasandra_circle",
      "lat": 12.8832,
      "lon": 77.7524,
      "current_speed": 38,
      "free_flow_speed": 38,
      "confidence": 1,
      "congestion_ratio": 1.0
    },
    {
      "timestamp": "2026-04-19 08:36:00.242880+00:00",
      "location_name": "chembenahalli",
      "lat": 12.8793,
      "lon": 77.7616,
      "current_speed": 38,
      "free_flow_speed": 38,
      "confidence": 1,
      "congestion_ratio": 1.0
    },
    {
      "timestamp": "2026-04-19 08:36:01.609112+00:00",
      "location_name": "varthur_gunjur_junction",
      "lat": 12.9265,
      "lon": 77.7377,
      "current_speed": 33,
      "free_flow_speed": 35,
      "confidence": 1,
      "congestion_ratio": 1.061
    },
    {
      "timestamp": "2026-04-19 08:36:02.821988+00:00",
      "location_name": "sarjapur_town_center",
      "lat": 12.86,
      "lon": 77.786,
      "current_speed": 38,
      "free_flow_speed": 38,
      "confidence": 1,
      "congestion_ratio": 1.0
    },
    {
      "timestamp": "2026-04-19 08:36:04.022353+00:00",
      "location_name": "carmelaram_junction",
      "lat": 12.9125,
      "lon": 77.7056,
      "current_speed": 25,
      "free_flow_speed": 26,
      "confidence": 0.956581,
      "congestion_ratio": 1.04
    },
    {
      "timestamp": "2026-04-19 08:36:05.215285+00:00",
      "location_name": "harlur_road_junction",
      "lat": 12.908,
      "lon": 77.676,
      "current_speed": 26,
      "free_flow_speed": 26,
      "confidence": 1,
      "congestion_ratio": 1.0
    },
    {
      "timestamp": "2026-04-19 08:36:06.423404+00:00",
      "location_name": "iblur_wipro_junction",
      "lat": 12.9209,
      "lon": 77.6653,
      "current_speed": 25,
      "free_flow_speed": 25,
      "confidence": 1,
      "congestion_ratio": 1.0
    }
  ]
}