{
  "collected_at": "2026-04-19T07:51:06.906350+00:00",
  "source": "tomtom_traffic_flow",
  "success_count": 8,
  "fail_count": 0,
  "readings": [
    {
      "timestamp": "2026-04-19 07:50:57.793344+00:00",
      "location_name": "sarjapur_road_junction",
      "lat": 12.9165,
      "lon": 77.675,
      "current_speed": 32,
      "free_flow_speed": 37,
      "confidence": 1,
      "congestion_ratio": 1.156
    },
    {
      "timestamp": "2026-04-19 07:50:58.997424+00:00",
      "location_name": "dommasandra_circle",
      "lat": 12.8832,
      "lon": 77.7524,
      "current_speed": 38,
      "free_flow_speed": 38,
      "confidence": 1,
      "congestion_ratio": 1.0
    },
    {
      "timestamp": "2026-04-19 07:51:00.209459+00:00",
      "location_name": "chembenahalli",
      "lat": 12.8793,
      "lon": 77.7616,
      "current_speed": 38,
      "free_flow_speed": 38,
      "confidence": 1,
      "congestion_ratio": 1.0
    },
    {
      "timestamp": "2026-04-19 07:51:01.580399+00:00",
      "location_name": "varthur_gunjur_junction",
      "lat": 12.9265,
      "lon": 77.7377,
      "current_speed": 32,
      "free_flow_speed": 37,
      "confidence": 1,
      "congestion_ratio": 1.156
    },
    {
      "timestamp": "2026-04-19 07:51:02.795740+00:00",
      "location_name": "sarjapur_town_center",
      "lat": 12.86,
      "lon": 77.786,
      "current_speed": 38,
      "free_flow_speed": 38,
      "confidence": 1,
      "congestion_ratio": 1.0
    },
    {
      "timestamp": "2026-04-19 07:51:03.997331+00:00",
      "location_name": "carmelaram_junction",
      "lat": 12.9125,
      "lon": 77.7056,
      "current_speed": 21,
      "free_flow_speed": 26,
      "confidence": 0.958777,
      "congestion_ratio": 1.238
    },
    {
      "timestamp": "2026-04-19 07:51:05.188507+00:00",
      "location_name": "harlur_road_junction",
      "lat": 12.908,
      "lon": 77.676,
      "current_speed": 26,
      "free_flow_speed": 26,
      "confidence": 1,
      "congestion_ratio": 1.0
    },
    {
      "timestamp": "2026-04-19 07:51:06.387885+00:00",
      "location_name": "iblur_wipro_junction",
      "lat": 12.9209,
      "lon": 77.6653,
      "current_speed": 25,
      "free_flow_speed": 25,
      "confidence": 1,
      "congestion_ratio": 1.0
    }
  ]
}