{
  "collected_at": "2026-04-19T14:34:10.137191+00:00",
  "source": "tomtom_traffic_flow",
  "success_count": 8,
  "fail_count": 0,
  "readings": [
    {
      "timestamp": "2026-04-19 14:34:01.171813+00:00",
      "location_name": "sarjapur_road_junction",
      "lat": 12.9165,
      "lon": 77.675,
      "current_speed": 28,
      "free_flow_speed": 36,
      "confidence": 1,
      "congestion_ratio": 0.778
    },
    {
      "timestamp": "2026-04-19 14:34:02.370393+00:00",
      "location_name": "dommasandra_circle",
      "lat": 12.8832,
      "lon": 77.7524,
      "current_speed": 30,
      "free_flow_speed": 38,
      "confidence": 0.991025,
      "congestion_ratio": 0.789
    },
    {
      "timestamp": "2026-04-19 14:34:03.550761+00:00",
      "location_name": "chembenahalli",
      "lat": 12.8793,
      "lon": 77.7616,
      "current_speed": 30,
      "free_flow_speed": 38,
      "confidence": 0.991025,
      "congestion_ratio": 0.789
    },
    {
      "timestamp": "2026-04-19 14:34:04.886148+00:00",
      "location_name": "varthur_gunjur_junction",
      "lat": 12.9265,
      "lon": 77.7377,
      "current_speed": 28,
      "free_flow_speed": 36,
      "confidence": 1,
      "congestion_ratio": 0.778
    },
    {
      "timestamp": "2026-04-19 14:34:06.076779+00:00",
      "location_name": "sarjapur_town_center",
      "lat": 12.86,
      "lon": 77.786,
      "current_speed": 30,
      "free_flow_speed": 38,
      "confidence": 0.991025,
      "congestion_ratio": 0.789
    },
    {
      "timestamp": "2026-04-19 14:34:07.252231+00:00",
      "location_name": "carmelaram_junction",
      "lat": 12.9125,
      "lon": 77.7056,
      "current_speed": 22,
      "free_flow_speed": 26,
      "confidence": 0.959113,
      "congestion_ratio": 0.846
    },
    {
      "timestamp": "2026-04-19 14:34:08.438250+00:00",
      "location_name": "harlur_road_junction",
      "lat": 12.908,
      "lon": 77.676,
      "current_speed": 20,
      "free_flow_speed": 26,
      "confidence": 1,
      "congestion_ratio": 0.769
    },
    {
      "timestamp": "2026-04-19 14:34:09.619009+00:00",
      "location_name": "iblur_wipro_junction",
      "lat": 12.9209,
      "lon": 77.6653,
      "current_speed": 14,
      "free_flow_speed": 24,
      "confidence": 1,
      "congestion_ratio": 0.583
    }
  ]
}