{
  "collected_at": "2026-04-19T10:06:06.884174+00:00",
  "source": "tomtom_traffic_flow",
  "success_count": 8,
  "fail_count": 0,
  "readings": [
    {
      "timestamp": "2026-04-19 10:05:57.830244+00:00",
      "location_name": "sarjapur_road_junction",
      "lat": 12.9165,
      "lon": 77.675,
      "current_speed": 33,
      "free_flow_speed": 37,
      "confidence": 1,
      "congestion_ratio": 1.121
    },
    {
      "timestamp": "2026-04-19 10:05:59.058576+00:00",
      "location_name": "dommasandra_circle",
      "lat": 12.8832,
      "lon": 77.7524,
      "current_speed": 38,
      "free_flow_speed": 38,
      "confidence": 1,
      "congestion_ratio": 1.0
    },
    {
      "timestamp": "2026-04-19 10:06:00.271815+00:00",
      "location_name": "chembenahalli",
      "lat": 12.8793,
      "lon": 77.7616,
      "current_speed": 38,
      "free_flow_speed": 38,
      "confidence": 1,
      "congestion_ratio": 1.0
    },
    {
      "timestamp": "2026-04-19 10:06:01.613485+00:00",
      "location_name": "varthur_gunjur_junction",
      "lat": 12.9265,
      "lon": 77.7377,
      "current_speed": 33,
      "free_flow_speed": 37,
      "confidence": 1,
      "congestion_ratio": 1.121
    },
    {
      "timestamp": "2026-04-19 10:06:02.806748+00:00",
      "location_name": "sarjapur_town_center",
      "lat": 12.86,
      "lon": 77.786,
      "current_speed": 38,
      "free_flow_speed": 38,
      "confidence": 1,
      "congestion_ratio": 1.0
    },
    {
      "timestamp": "2026-04-19 10:06:03.988438+00:00",
      "location_name": "carmelaram_junction",
      "lat": 12.9125,
      "lon": 77.7056,
      "current_speed": 25,
      "free_flow_speed": 26,
      "confidence": 0.954443,
      "congestion_ratio": 1.04
    },
    {
      "timestamp": "2026-04-19 10:06:05.181569+00:00",
      "location_name": "harlur_road_junction",
      "lat": 12.908,
      "lon": 77.676,
      "current_speed": 26,
      "free_flow_speed": 26,
      "confidence": 1,
      "congestion_ratio": 1.0
    },
    {
      "timestamp": "2026-04-19 10:06:06.367621+00:00",
      "location_name": "iblur_wipro_junction",
      "lat": 12.9209,
      "lon": 77.6653,
      "current_speed": 13,
      "free_flow_speed": 26,
      "confidence": 1,
      "congestion_ratio": 2.0
    }
  ]
}